{
"type": "FeatureCollection",
"name": "metro_stations_mumbai",
"crs": { "type": "name", "properties": { "name": "urn:ogc:def:crs:OGC:1.3:CRS84" } },
"features": [
{ "type": "Feature", "properties": { "id": 1435294693, "name": "Mansarovar", "lat": 19.0164338, "lon": 73.0806552, "operator": "CR", "station_type": "light_rail" }, "geometry": { "type": "Point", "coordinates": [ 73.0806552, 19.0164338 ] } },
{ "type": "Feature", "properties": { "id": 1645802025, "name": "Khandeshwar", "lat": 19.0073498, "lon": 73.0952827, "operator": "CR", "station_type": "light_rail" }, "geometry": { "type": "Point", "coordinates": [ 73.0952827, 19.0073498 ] } },
{ "type": "Feature", "properties": { "id": 5219622342, "name": "Dahanukarwadi", "lat": 19.2062315, "lon": 72.8348068, "operator": "Unknown", "station_type": "subway" }, "geometry": { "type": "Point", "coordinates": [ 72.8348068, 19.2062315 ] } },
{ "type": "Feature", "properties": { "id": 5219622343, "name": "Kandivali (West)", "lat": 19.2140036, "lon": 72.8373054, "operator": "Unknown", "station_type": "subway" }, "geometry": { "type": "Point", "coordinates": [ 72.8373054, 19.2140036 ] } },
{ "type": "Feature", "properties": { "id": 5219622344, "name": "Borivali (West)", "lat": 19.2313925, "lon": 72.8408607, "operator": "Unknown", "station_type": "subway" }, "geometry": { "type": "Point", "coordinates": [ 72.8408607, 19.2313925 ] } },
{ "type": "Feature", "properties": { "id": 5219622345, "name": "Mandapeshwar - I.C. Colony", "lat": 19.2495856, "lon": 72.8458001, "operator": "Unknown", "station_type": "subway" }, "geometry": { "type": "Point", "coordinates": [ 72.8458001, 19.2495856 ] } },
{ "type": "Feature", "properties": { "id": 5219622346, "name": "Kandarpada", "lat": 19.2566337, "lon": 72.850504, "operator": "Unknown", "station_type": "subway" }, "geometry": { "type": "Point", "coordinates": [ 72.850504, 19.2566337 ] } },
{ "type": "Feature", "properties": { "id": 5219622347, "name": "Anand Nagar", "lat": 19.2572087, "lon": 72.8663486, "operator": "Unknown", "station_type": "subway" }, "geometry": { "type": "Point", "coordinates": [ 72.8663486, 19.2572087 ] } },
{ "type": "Feature", "properties": { "id": 5219623032, "name": "Shimpoli", "lat": 19.2228332, "lon": 72.8409432, "operator": "Unknown", "station_type": "subway" }, "geometry": { "type": "Point", "coordinates": [ 72.8409432, 19.2228332 ] } },
{ "type": "Feature", "properties": { "id": 5219623047, "name": "Eksar", "lat": 19.2403773, "lon": 72.8434456, "operator": "Unknown", "station_type": "subway" }, "geometry": { "type": "Point", "coordinates": [ 72.8434456, 19.2403773 ] } },
{ "type": "Feature", "properties": { "id": 5221297132, "name": "CSMI Airport International T2", "lat": 19.1023335, "lon": 72.8744692, "operator": "Mumbai Metro Rail Corporation Ltd", "station_type": "subway" }, "geometry": { "type": "Point", "coordinates": [ 72.8744692, 19.1023335 ] } },
{ "type": "Feature", "properties": { "id": 5221297179, "name": "Bandra Kurla Complex (BKC)", "lat": 19.0606629, "lon": 72.8546797, "operator": "Mumbai Metro Rail Corporation Ltd", "station_type": "subway" }, "geometry": { "type": "Point", "coordinates": [ 72.8546797, 19.0606629 ] } },
{ "type": "Feature", "properties": { "id": 5787704195, "name": "SEEPZ", "lat": 19.1259985, "lon": 72.8737266, "operator": "Mumbai Metro Rail Corporation Ltd", "station_type": "subway" }, "geometry": { "type": "Point", "coordinates": [ 72.8737266, 19.1259985 ] } },
{ "type": "Feature", "properties": { "id": 5787704196, "name": "MIDC - Andheri", "lat": 19.1173537, "lon": 72.8735966, "operator": "Mumbai Metro Rail Corporation Ltd", "station_type": "subway" }, "geometry": { "type": "Point", "coordinates": [ 72.8735966, 19.1173537 ] } },
{ "type": "Feature", "properties": { "id": 5787704197, "name": "मरोळ नाका Marol Naka M3", "lat": 19.1085041, "lon": 72.878578, "operator": "Mumbai Metro Rail Corporation Ltd", "station_type": "subway" }, "geometry": { "type": "Point", "coordinates": [ 72.878578, 19.1085041 ] } },
{ "type": "Feature", "properties": { "id": 6020955334, "name": "Andheri", "lat": 19.1204624, "lon": 72.8487861, "operator": "Unknown", "station_type": "subway" }, "geometry": { "type": "Point", "coordinates": [ 72.8487861, 19.1204624 ] } },
{ "type": "Feature", "properties": { "id": 9627118208, "name": "Dahisar (East) [Line 7]", "lat": 19.2506981, "lon": 72.8666664, "operator": "Unknown", "station_type": "subway" }, "geometry": { "type": "Point", "coordinates": [ 72.8666664, 19.2506981 ] } },
{ "type": "Feature", "properties": { "id": 9627118209, "name": "Dahisar (East) [Line 2]", "lat": 19.2517331, "lon": 72.8673322, "operator": "Unknown", "station_type": "subway" }, "geometry": { "type": "Point", "coordinates": [ 72.8673322, 19.2517331 ] } },
{ "type": "Feature", "properties": { "id": 9629564097, "name": "Aarey", "lat": 19.1693242, "lon": 72.8587918, "operator": "Unknown", "station_type": "subway" }, "geometry": { "type": "Point", "coordinates": [ 72.8587918, 19.1693242 ] } },
{ "type": "Feature", "properties": { "id": 9629564098, "name": "Dindoshi", "lat": 19.1797579, "lon": 72.8582976, "operator": "Unknown", "station_type": "subway" }, "geometry": { "type": "Point", "coordinates": [ 72.8582976, 19.1797579 ] } },
{ "type": "Feature", "properties": { "id": 9629564099, "name": "Kurar", "lat": 19.1872999, "lon": 72.8584547, "operator": "Unknown", "station_type": "subway" }, "geometry": { "type": "Point", "coordinates": [ 72.8584547, 19.1872999 ] } },
{ "type": "Feature", "properties": { "id": 9629564100, "name": "Akurli", "lat": 19.1981585, "lon": 72.8604905, "operator": "Unknown", "station_type": "subway" }, "geometry": { "type": "Point", "coordinates": [ 72.8604905, 19.1981585 ] } },
{ "type": "Feature", "properties": { "id": 9629564101, "name": "Poisar", "lat": 19.2035171, "lon": 72.8631041, "operator": "Unknown", "station_type": "subway" }, "geometry": { "type": "Point", "coordinates": [ 72.8631041, 19.2035171 ] } },
{ "type": "Feature", "properties": { "id": 9629564102, "name": "Magathane", "lat": 19.2167968, "lon": 72.8668012, "operator": "Unknown", "station_type": "subway" }, "geometry": { "type": "Point", "coordinates": [ 72.8668012, 19.2167968 ] } },
{ "type": "Feature", "properties": { "id": 9629564103, "name": "Devipada", "lat": 19.2240357, "lon": 72.8643251, "operator": "Unknown", "station_type": "subway" }, "geometry": { "type": "Point", "coordinates": [ 72.8643251, 19.2240357 ] } },
{ "type": "Feature", "properties": { "id": 9629564104, "name": "Rashtriya Udyan", "lat": 19.2348129, "lon": 72.8630608, "operator": "MMRDA", "station_type": "subway" }, "geometry": { "type": "Point", "coordinates": [ 72.8630608, 19.2348129 ] } },
{ "type": "Feature", "properties": { "id": 9629564105, "name": "Ovaripada", "lat": 19.2431487, "lon": 72.8641377, "operator": "MMRDA", "station_type": "subway" }, "geometry": { "type": "Point", "coordinates": [ 72.8641377, 19.2431487 ] } },
{ "type": "Feature", "properties": { "id": 10576622687, "name": "Gundavali", "lat": 19.1145125, "lon": 72.8551556, "operator": "Unknown", "station_type": "subway" }, "geometry": { "type": "Point", "coordinates": [ 72.8551556, 19.1145125 ] } },
{ "type": "Feature", "properties": { "id": 10576622712, "name": "Mogra", "lat": 19.1284364, "lon": 72.8554558, "operator": "Unknown", "station_type": "subway" }, "geometry": { "type": "Point", "coordinates": [ 72.8554558, 19.1284364 ] } },
{ "type": "Feature", "properties": { "id": 10576622721, "name": "Jogeshwari (East)", "lat": 19.1429455, "lon": 72.855185, "operator": "Unknown", "station_type": "subway" }, "geometry": { "type": "Point", "coordinates": [ 72.855185, 19.1429455 ] } },
{ "type": "Feature", "properties": { "id": 10576622722, "name": "Goregaon (East)", "lat": 19.1524492, "lon": 72.8565966, "operator": "Unknown", "station_type": "subway" }, "geometry": { "type": "Point", "coordinates": [ 72.8565966, 19.1524492 ] } },
{ "type": "Feature", "properties": { "id": 10576726748, "name": "Andheri (West)", "lat": 19.1291337, "lon": 72.8314307, "operator": "Unknown", "station_type": "subway" }, "geometry": { "type": "Point", "coordinates": [ 72.8314307, 19.1291337 ] } },
{ "type": "Feature", "properties": { "id": 10576726751, "name": "Lower Oshiwara", "lat": 19.1406979, "lon": 72.8317139, "operator": "Unknown", "station_type": "subway" }, "geometry": { "type": "Point", "coordinates": [ 72.8317139, 19.1406979 ] } },
{ "type": "Feature", "properties": { "id": 10576726756, "name": "Oshiwara", "lat": 19.1460351, "lon": 72.833952, "operator": "Unknown", "station_type": "subway" }, "geometry": { "type": "Point", "coordinates": [ 72.833952, 19.1460351 ] } },
{ "type": "Feature", "properties": { "id": 10576726757, "name": "Goregaon (West)", "lat": 19.1530241, "lon": 72.8356664, "operator": "Unknown", "station_type": "subway" }, "geometry": { "type": "Point", "coordinates": [ 72.8356664, 19.1530241 ] } },
{ "type": "Feature", "properties": { "id": 10576726761, "name": "Lower Malad", "lat": 19.1730984, "lon": 72.8364801, "operator": "Unknown", "station_type": "subway" }, "geometry": { "type": "Point", "coordinates": [ 72.8364801, 19.1730984 ] } },
{ "type": "Feature", "properties": { "id": 10576726762, "name": "Malad (West)", "lat": 19.1852851, "lon": 72.8358611, "operator": "Unknown", "station_type": "subway" }, "geometry": { "type": "Point", "coordinates": [ 72.8358611, 19.1852851 ] } },
{ "type": "Feature", "properties": { "id": 10576726763, "name": "Valnai-Meeth Chowky", "lat": 19.1968293, "lon": 72.8337752, "operator": "Unknown", "station_type": "subway" }, "geometry": { "type": "Point", "coordinates": [ 72.8337752, 19.1968293 ] } },
{ "type": "Feature", "properties": { "id": 11335491947, "name": "CBD Belapur", "lat": 19.0205999, "lon": 73.0402663, "operator": "CIDCO", "station_type": "subway" }, "geometry": { "type": "Point", "coordinates": [ 73.0402663, 19.0205999 ] } },
{ "type": "Feature", "properties": { "id": 11335491948, "name": "Sector 7", "lat": 19.0229846, "lon": 73.0479433, "operator": "CIDCO", "station_type": "subway" }, "geometry": { "type": "Point", "coordinates": [ 73.0479433, 19.0229846 ] } },
{ "type": "Feature", "properties": { "id": 12074909129, "name": "Bandra Colony", "lat": 19.0699627, "lon": 72.8493601, "operator": "Mumbai Metro Rail Corporation Ltd", "station_type": "subway" }, "geometry": { "type": "Point", "coordinates": [ 72.8493601, 19.0699627 ] } },
{ "type": "Feature", "properties": { "id": 12074909130, "name": "Santacruz M3", "lat": 19.0792887, "lon": 72.8471185, "operator": "Mumbai Metro Rail Corporation Ltd", "station_type": "subway" }, "geometry": { "type": "Point", "coordinates": [ 72.8471185, 19.0792887 ] } },
{ "type": "Feature", "properties": { "id": 12074909131, "name": "CSMI Airport Domestic T1", "lat": 19.093899, "lon": 72.8535765, "operator": "Mumbai Metro Rail Corporation Ltd", "station_type": "subway" }, "geometry": { "type": "Point", "coordinates": [ 72.8535765, 19.093899 ] } },
{ "type": "Feature", "properties": { "id": 12074909132, "name": "Sahar Road", "lat": 19.102196, "lon": 72.8652361, "operator": "Mumbai Metro Rail Corporation Ltd", "station_type": "subway" }, "geometry": { "type": "Point", "coordinates": [ 72.8652361, 19.102196 ] } },
{ "type": "Feature", "properties": { "id": 12196197980, "name": "Bangur Nagar", "lat": 19.1624723, "lon": 72.8348708, "operator": "Unknown", "station_type": "subway" }, "geometry": { "type": "Point", "coordinates": [ 72.8348708, 19.1624723 ] } },
{ "type": "Feature", "properties": { "id": 12855459845, "name": "Dadar M3", "lat": 19.0236238, "lon": 72.8392214, "operator": "Mumbai Metro Rail Corporation Ltd", "station_type": "subway" }, "geometry": { "type": "Point", "coordinates": [ 72.8392214, 19.0236238 ] } },
{ "type": "Feature", "properties": { "id": 12855459846, "name": "Shitala Devi Mandir", "lat": 19.0384641, "lon": 72.8419646, "operator": "Mumbai Metro Rail Corporation Ltd", "station_type": "subway" }, "geometry": { "type": "Point", "coordinates": [ 72.8419646, 19.0384641 ] } },
{ "type": "Feature", "properties": { "id": 12855459847, "name": "Dharavi", "lat": 19.0462612, "lon": 72.849741, "operator": "Mumbai Metro Rail Corporation Ltd", "station_type": "subway" }, "geometry": { "type": "Point", "coordinates": [ 72.849741, 19.0462612 ] } },
{ "type": "Feature", "properties": { "id": 12857565154, "name": "Acharya Atrey Chowk", "lat": 18.9978202, "lon": 72.8177201, "operator": "Mumbai Metro Rail Corporation Ltd", "station_type": "subway" }, "geometry": { "type": "Point", "coordinates": [ 72.8177201, 18.9978202 ] } },
{ "type": "Feature", "properties": { "id": 12857565155, "name": "वरळी Worli", "lat": 19.0086057, "lon": 72.8192741, "operator": "Mumbai Metro Rail Corporation Ltd", "station_type": "subway" }, "geometry": { "type": "Point", "coordinates": [ 72.8192741, 19.0086057 ] } },
{ "type": "Feature", "properties": { "id": 12857565156, "name": "Siddhivinayak Temple", "lat": 19.0158935, "lon": 72.8309199, "operator": "Mumbai Metro Rail Corporation Ltd", "station_type": "subway" }, "geometry": { "type": "Point", "coordinates": [ 72.8309199, 19.0158935 ] } }
]
}
